[
  {
    "name": "R-Ladies Barcelona",
    "id": "rladies-barcelona",
    "country": "ES",
    "state": "",
    "city": "Barcelona",
    "members": 592,
    "status": "active",
    "lat": 41.4,
    "lon": 2.17,
    "timezone": "Europe/Madrid"
  },
  {
    "name": "R-Ladies Bilbao",
    "id": "rladies-bilbao",
    "country": "ES",
    "state": "",
    "city": "Bilbao",
    "members": 184,
    "status": "active",
    "lat": 43.25,
    "lon": -2.93,
    "timezone": "Europe/Madrid"
  },
  {
    "name": "R-Ladies Tucson AZ",
    "id": "rladies-tucson-az",
    "country": "US",
    "state": "AZ",
    "city": "Tucson",
    "members": 353,
    "status": "active",
    "lat": 32.22,
    "lon": -110.97,
    "timezone": "US/Arizona"
  },
  {
    "name": "R-Ladies Bariloche",
    "id": "rladies-bariloche",
    "country": "AR",
    "state": "",
    "city": "San Carlos de Bariloche",
    "members": 278,
    "status": "active",
    "lat": -41.14,
    "lon": -71.32,
    "timezone": "America/Cordoba"
  },
  {
    "name": "R-Ladies Porto Alegre",
    "id": "rladies-porto-alegre",
    "country": "BR",
    "state": "",
    "city": "Porto Alegre",
    "members": 354,
    "status": "active",
    "lat": -30.04,
    "lon": -51.22,
    "timezone": "America/Sao_Paulo"
  },
  {
    "name": "R-Ladies Melbourne",
    "id": "rladies-melbourne",
    "country": "AU",
    "state": "",
    "city": "Melbourne",
    "members": 1739,
    "status": "active",
    "lat": -37.81,
    "lon": 144.96,
    "timezone": "Australia/Melbourne"
  },
  {
    "name": "R-Ladies Santa Barbara",
    "id": "rladies-santa-barbara",
    "country": "US",
    "state": "CA",
    "city": "Santa Barbara",
    "members": 438,
    "status": "active",
    "lat": 34.42,
    "lon": -119.71,
    "timezone": "US/Pacific"
  },
  {
    "name": "R-Ladies Kansas City",
    "id": "rladies-kansas-city",
    "country": "US",
    "state": "MO",
    "city": "Kansas City",
    "members": 63,
    "status": "active",
    "lat": 39.1,
    "lon": -94.6,
    "timezone": "US/Central"
  },
  {
    "name": "R-Ladies Quito",
    "id": "rladies-quito",
    "country": "EC",
    "state": "",
    "city": "Quito",
    "members": 809,
    "status": "active",
    "lat": -0.19,
    "lon": -78.5,
    "timezone": "America/Guayaquil"
  },
  {
    "name": "R-Ladies Guayaquil",
    "id": "rladies-guayaquil",
    "country": "EC",
    "state": "",
    "city": "Guayaquil",
    "members": 541,
    "status": "active",
    "lat": -2.21,
    "lon": -79.9,
    "timezone": "America/Guayaquil"
  },
  {
    "name": "R-Ladies Canberra",
    "id": "rladies-canberra",
    "country": "AU",
    "state": "",
    "city": "Canberra",
    "members": 207,
    "status": "active",
    "lat": -35.31,
    "lon": 149.13,
    "timezone": "Australia/Canberra"
  },
  {
    "name": "R-Ladies Johannesburg",
    "id": "rladies-johannesburg",
    "country": "ZA",
    "state": "",
    "city": "Johannesburg",
    "members": 738,
    "status": "active",
    "lat": -26.19,
    "lon": 28.04,
    "timezone": "Africa/Johannesburg"
  },
  {
    "name": "R-Ladies San Diego",
    "id": "rladies-san-diego",
    "country": "US",
    "state": "CA",
    "city": "San Diego",
    "members": 607,
    "status": "active",
    "lat": 32.75,
    "lon": -117.17,
    "timezone": "US/Pacific"
  },
  {
    "name": "R-Ladies Riverside",
    "id": "rladies-riverside",
    "country": "US",
    "state": "CA",
    "city": "Riverside",
    "members": 348,
    "status": "active",
    "lat": 33.99,
    "lon": -117.37,
    "timezone": "US/Pacific"
  },
  {
    "name": "R-Ladies Houston",
    "id": "rladies-houston",
    "country": "US",
    "state": "TX",
    "city": "Houston",
    "members": 94,
    "status": "active",
    "lat": 29.72,
    "lon": -95.22,
    "timezone": "US/Central"
  },
  {
    "name": "R-Ladies Puebla",
    "id": "rladies-puebla",
    "country": "MX",
    "state": "",
    "city": "Puebla",
    "members": 201,
    "status": "active",
    "lat": 19.05,
    "lon": -98.22,
    "timezone": "America/Mexico_City"
  },
  {
    "name": "R-Ladies Highland Park",
    "id": "rladies-highland-park",
    "country": "US",
    "state": "NJ",
    "city": "Highland Park",
    "members": 70,
    "status": "active",
    "lat": 40.5,
    "lon": -74.43,
    "timezone": "US/Eastern"
  },
  {
    "name": "R-Ladies Frankfurt",
    "id": "rladies-frankfurt",
    "country": "DE",
    "state": "",
    "city": "Frankfurt",
    "members": 99,
    "status": "active",
    "lat": 50.12,
    "lon": 8.68,
    "timezone": "Europe/Berlin"
  },
  {
    "name": "R-Ladies Madrid",
    "id": "rladies-madrid",
    "country": "ES",
    "state": "",
    "city": "Madrid",
    "members": 1584,
    "status": "active",
    "lat": 40.42,
    "lon": -3.71,
    "timezone": "Europe/Madrid"
  },
  {
    "name": "R-Ladies Novi Sad",
    "id": "rladies-novi-sad",
    "country": "RS",
    "state": "",
    "city": "Novi Sad",
    "members": 137,
    "status": "active",
    "lat": 45.25,
    "lon": 19.85,
    "timezone": "Europe/Belgrade"
  },
  {
    "name": "R-Ladies Freiburg",
    "id": "rladies-freiburg",
    "country": "DE",
    "state": "",
    "city": "Freiburg",
    "members": 389,
    "status": "active",
    "lat": 47.99,
    "lon": 7.85,
    "timezone": "Europe/Berlin"
  },
  {
    "name": "R-Ladies Seattle",
    "id": "rladies-seattle",
    "country": "US",
    "state": "WA",
    "city": "Seattle",
    "members": 818,
    "status": "active",
    "lat": 47.61,
    "lon": -122.33,
    "timezone": "US/Pacific"
  },
  {
    "name": "R-Ladies Bucharest",
    "id": "rladies-bucharest",
    "country": "RO",
    "state": "",
    "city": "Bucharest",
    "members": 231,
    "status": "active",
    "lat": 44.44,
    "lon": 26.1,
    "timezone": "Europe/Bucharest"
  },
  {
    "name": "R-Ladies Xalapa",
    "id": "rladies-xalapa",
    "country": "MX",
    "state": "",
    "city": "Xalapa",
    "members": 402,
    "status": "active",
    "lat": 19.53,
    "lon": -96.92,
    "timezone": "America/Mexico_City"
  },
  {
    "name": "R-Ladies Belgrade",
    "id": "rladies-belgrade",
    "country": "RS",
    "state": "",
    "city": "Belgrade",
    "members": 455,
    "status": "active",
    "lat": 44.83,
    "lon": 20.5,
    "timezone": "Europe/Belgrade"
  },
  {
    "name": "R-Ladies East Lansing",
    "id": "rladies-east-lansing",
    "country": "US",
    "state": "MI",
    "city": "East Lansing",
    "members": 507,
    "status": "active",
    "lat": 42.65,
    "lon": -84.49,
    "timezone": "US/Eastern"
  },
  {
    "name": "R-Ladies Athens",
    "id": "rladies-athens-ga",
    "country": "US",
    "state": "GA",
    "city": "Athens",
    "members": 28,
    "status": "active",
    "lat": 33.97,
    "lon": -83.36,
    "timezone": "US/Eastern"
  },
  {
    "name": "R-Ladies Newcastle",
    "id": "rladies-newcastle",
    "country": "GB",
    "state": "41",
    "city": "Newcastle Upon Tyne",
    "members": 259,
    "status": "active",
    "lat": 55,
    "lon": -1.6,
    "timezone": "Europe/London"
  },
  {
    "name": "R-Ladies London",
    "id": "rladies-london",
    "country": "GB",
    "state": "17",
    "city": "London",
    "members": 1554,
    "status": "active",
    "lat": 51.52,
    "lon": -0.1,
    "timezone": "Europe/London"
  },
  {
    "name": "R-Ladies Stockholm",
    "id": "rladies-stockholm",
    "country": "SE",
    "state": "",
    "city": "Stockholm",
    "members": 378,
    "status": "active",
    "lat": 59.33,
    "lon": 18.07,
    "timezone": "Europe/Stockholm"
  },
  {
    "name": "R-Ladies Nijmegen",
    "id": "rladies-nijmegen",
    "country": "NL",
    "state": "",
    "city": "Nijmegen",
    "members": 346,
    "status": "active",
    "lat": 51.84,
    "lon": 5.85,
    "timezone": "Europe/Amsterdam"
  },
  {
    "name": "R-Ladies Berlin",
    "id": "rladies-berlin",
    "country": "DE",
    "state": "",
    "city": "Berlin",
    "members": 645,
    "status": "active",
    "lat": 52.52,
    "lon": 13.38,
    "timezone": "Europe/Berlin"
  },
  {
    "name": "R-Ladies Lyon",
    "id": "rladies-lyon",
    "country": "FR",
    "state": "",
    "city": "Lyon",
    "members": 78,
    "status": "active",
    "lat": 45.76,
    "lon": 4.83,
    "timezone": "Europe/Paris"
  },
  {
    "name": "R-Ladies Lausanne",
    "id": "rladies-lausanne",
    "country": "CH",
    "state": "",
    "city": "Lausanne",
    "members": 317,
    "status": "active",
    "lat": 46.52,
    "lon": 6.62,
    "timezone": "Europe/Zurich"
  },
  {
    "name": "R-Ladies Vienna",
    "id": "rladies-vienna",
    "country": "AT",
    "state": "",
    "city": "Vienna",
    "members": 216,
    "status": "active",
    "lat": 48.22,
    "lon": 16.37,
    "timezone": "Europe/Vienna"
  },
  {
    "name": "R-Ladies Kyiv",
    "id": "rladies-kyiv",
    "country": "UA",
    "state": "",
    "city": "Kyiv",
    "members": 299,
    "status": "active",
    "lat": 50.44,
    "lon": 30.52,
    "timezone": "Europe/Kiev"
  },
  {
    "name": "R-Ladies Salvador",
    "id": "rladies-salvador",
    "country": "BR",
    "state": "",
    "city": "Salvador",
    "members": 228,
    "status": "active",
    "lat": -12.97,
    "lon": -38.5,
    "timezone": "America/Bahia"
  },
  {
    "name": "R-Ladies Perth",
    "id": "rladies-perth",
    "country": "AU",
    "state": "",
    "city": "Perth",
    "members": 249,
    "status": "active",
    "lat": -31.96,
    "lon": 115.84,
    "timezone": "Australia/Perth"
  },
  {
    "name": "R-Ladies Edinburgh",
    "id": "rladies-edinburgh",
    "country": "GB",
    "state": "U8",
    "city": "Edinburgh",
    "members": 532,
    "status": "active",
    "lat": 55.95,
    "lon": -3.22,
    "timezone": "Europe/London"
  },
  {
    "name": "R-Ladies Baltimore",
    "id": "rladies-baltimore",
    "country": "US",
    "state": "MD",
    "city": "Baltimore",
    "members": 652,
    "status": "active",
    "lat": 39.29,
    "lon": -76.62,
    "timezone": "US/Eastern"
  },
  {
    "name": "R-Ladies Rotterdam",
    "id": "rladies-rotterdam",
    "country": "NL",
    "state": "",
    "city": "Rotterdam",
    "members": 500,
    "status": "active",
    "lat": 51.93,
    "lon": 4.48,
    "timezone": "Europe/Amsterdam"
  },
  {
    "name": "R-Ladies Pasadena",
    "id": "rladies-pasadena",
    "country": "US",
    "state": "CA",
    "city": "Pasadena",
    "members": 95,
    "status": "active",
    "lat": 34.15,
    "lon": -118.14,
    "timezone": "US/Pacific"
  },
  {
    "name": "R-Ladies Boulder",
    "id": "rladies-boulder",
    "country": "US",
    "state": "CO",
    "city": "Boulder",
    "members": 166,
    "status": "active",
    "lat": 40.05,
    "lon": -105.21,
    "timezone": "US/Mountain"
  },
  {
    "name": "R-Ladies Des Moines",
    "id": "rladies-des-moines",
    "country": "US",
    "state": "IA",
    "city": "Des Moines",
    "members": 25,
    "status": "active",
    "lat": 41.6,
    "lon": -93.63,
    "timezone": "US/Central"
  },
  {
    "name": "R-Ladies Fayetteville",
    "id": "rladies-fayetteville",
    "country": "US",
    "state": "AR",
    "city": "Fayetteville",
    "members": 111,
    "status": "active",
    "lat": 36.05,
    "lon": -94.14,
    "timezone": "US/Central"
  },
  {
    "name": "R-Ladies Iowa City",
    "id": "rladies-iowa-city",
    "country": "US",
    "state": "IA",
    "city": "Iowa City",
    "members": 109,
    "status": "active",
    "lat": 41.66,
    "lon": -91.53,
    "timezone": "US/Central"
  },
  {
    "name": "R-Ladies Toronto",
    "id": "rladies-toronto",
    "country": "CA",
    "state": "ON",
    "city": "Toronto",
    "members": 616,
    "status": "active",
    "lat": 43.74,
    "lon": -79.36,
    "timezone": "Canada/Eastern"
  },
  {
    "name": "R-Ladies Oslo",
    "id": "rladies-oslo",
    "country": "NO",
    "state": "",
    "city": "Oslo",
    "members": 538,
    "status": "active",
    "lat": 59.91,
    "lon": 10.75,
    "timezone": "Europe/Oslo"
  },
  {
    "name": "R-Ladies Copenhagen",
    "id": "rladies-copenhagen",
    "country": "DK",
    "state": "",
    "city": "Copenhagen",
    "members": 450,
    "status": "active",
    "lat": 55.68,
    "lon": 12.57,
    "timezone": "Europe/Copenhagen"
  },
  {
    "name": "R-Ladies Utrecht",
    "id": "rladies-utrecht",
    "country": "NL",
    "state": "",
    "city": "Utrecht",
    "members": 174,
    "status": "active",
    "lat": 52.1,
    "lon": 5.11,
    "timezone": "Europe/Amsterdam"
  },
  {
    "name": "R-Ladies Montpellier",
    "id": "rladies-montpellier",
    "country": "FR",
    "state": "",
    "city": "Montpellier",
    "members": 133,
    "status": "active",
    "lat": 43.61,
    "lon": 3.87,
    "timezone": "Europe/Paris"
  },
  {
    "name": "R-Ladies L'viv",
    "id": "rladies-lviv",
    "country": "UA",
    "state": "",
    "city": "L'viv",
    "members": 34,
    "status": "active",
    "lat": 49.84,
    "lon": 24.03,
    "timezone": "Europe/Kiev"
  },
  {
    "name": "R-Ladies Goiânia",
    "id": "rladies-goiania",
    "country": "BR",
    "state": "",
    "city": "Goiania",
    "members": 339,
    "status": "active",
    "lat": -16.72,
    "lon": -49.26,
    "timezone": "America/Sao_Paulo"
  },
  {
    "name": "R-Ladies Auckland",
    "id": "rladies-auckland",
    "country": "NZ",
    "state": "",
    "city": "Auckland",
    "members": 726,
    "status": "active",
    "lat": -36.85,
    "lon": 174.76,
    "timezone": "Pacific/Auckland"
  },
  {
    "name": "R-Ladies Niterói",
    "id": "rladies-niteroi",
    "country": "BR",
    "state": "",
    "city": "Niterói",
    "members": 745,
    "status": "active",
    "lat": -22.9,
    "lon": -43.13,
    "timezone": "America/Sao_Paulo"
  },
  {
    "name": "R-Ladies Christchurch",
    "id": "rladies-christchurch",
    "country": "NZ",
    "state": "",
    "city": "Christchurch",
    "members": 88,
    "status": "active",
    "lat": -43.53,
    "lon": 172.64,
    "timezone": "Pacific/Auckland"
  },
  {
    "name": "R-Ladies Brisbane",
    "id": "rladies-brisbane",
    "country": "AU",
    "state": "",
    "city": "Brisbane",
    "members": 478,
    "status": "active",
    "lat": -27.46,
    "lon": 153.02,
    "timezone": "Australia/Brisbane"
  },
  {
    "name": "R-Ladies Kathmandu",
    "id": "rladies-kathmandu",
    "country": "NP",
    "state": "",
    "city": "Kathmandu",
    "members": 80,
    "status": "active",
    "lat": 27.71,
    "lon": 85.31,
    "timezone": "Asia/Katmandu"
  },
  {
    "name": "R-Ladies New Delhi",
    "id": "rladies-new-delhi",
    "country": "IN",
    "state": "",
    "city": "Delhi",
    "members": 329,
    "status": "active",
    "lat": 28.67,
    "lon": 77.21,
    "timezone": "Asia/Calcutta"
  },
  {
    "name": "R-Ladies Lima",
    "id": "rladies-lima",
    "country": "PE",
    "state": "",
    "city": "Lima",
    "members": 1434,
    "status": "active",
    "lat": -12.07,
    "lon": -77.05,
    "timezone": "America/Lima"
  },
  {
    "name": "R-Ladies Amsterdam",
    "id": "rladies-amsterdam",
    "country": "NL",
    "state": "",
    "city": "Amsterdam",
    "members": 875,
    "status": "active",
    "lat": 52.37,
    "lon": 4.89,
    "timezone": "Europe/Amsterdam"
  },
  {
    "name": "R-Ladies Columbus",
    "id": "rladies-columbus",
    "country": "US",
    "state": "OH",
    "city": "Columbus",
    "members": 890,
    "status": "active",
    "lat": 40.01,
    "lon": -83.02,
    "timezone": "US/Eastern"
  },
  {
    "name": "R-Ladies Denver",
    "id": "rladies-denver",
    "country": "US",
    "state": "CO",
    "city": "Denver",
    "members": 93,
    "status": "active",
    "lat": 39.7,
    "lon": -105.08,
    "timezone": "US/Mountain"
  },
  {
    "name": "R-Ladies Atlanta",
    "id": "rladies-atlanta",
    "country": "US",
    "state": "GA",
    "city": "Atlanta",
    "members": 270,
    "status": "active",
    "lat": 33.86,
    "lon": -84.4,
    "timezone": "US/Eastern"
  },
  {
    "name": "R-Ladies Gainesville",
    "id": "rladies-gainesville",
    "country": "US",
    "state": "FL",
    "city": "Gainesville",
    "members": 343,
    "status": "active",
    "lat": 29.65,
    "lon": -82.3,
    "timezone": "US/Eastern"
  },
  {
    "name": "R-Ladies Lavras",
    "id": "rladies-lavras",
    "country": "BR",
    "state": "",
    "city": "Lavras",
    "members": 45,
    "status": "active",
    "lat": -21.25,
    "lon": -45.01,
    "timezone": "America/Sao_Paulo"
  },
  {
    "name": "R-Ladies Jakarta",
    "id": "rladies-jakarta",
    "country": "ID",
    "state": "",
    "city": "Jakarta",
    "members": 544,
    "status": "active",
    "lat": -6.18,
    "lon": 106.83,
    "timezone": "Asia/Jakarta"
  },
  {
    "name": "R-Ladies Addis Ababa",
    "id": "rladies-addis-ababa",
    "country": "ET",
    "state": "",
    "city": "Addis Abeba",
    "members": 509,
    "status": "active",
    "lat": 9.03,
    "lon": 38.74,
    "timezone": "Africa/Addis_Ababa"
  },
  {
    "name": "R-Ladies Dallas",
    "id": "rladies-dallas",
    "country": "US",
    "state": "TX",
    "city": "Dallas",
    "members": 473,
    "status": "active",
    "lat": 32.79,
    "lon": -96.8,
    "timezone": "US/Central"
  },
  {
    "name": "R-Ladies Remote",
    "id": "rladies-remote",
    "country": "US",
    "state": "CA",
    "city": "San Francisco",
    "members": 345,
    "status": "active",
    "lat": 37.78,
    "lon": -122.42,
    "timezone": "US/Pacific"
  },
  {
    "name": "R-Ladies Los Angeles",
    "id": "rladies-la",
    "country": "US",
    "state": "CA",
    "city": "Los Angeles",
    "members": 620,
    "status": "active",
    "lat": 34.07,
    "lon": -118.45,
    "timezone": "US/Pacific"
  },
  {
    "name": "R-Ladies El Paso",
    "id": "rladies-el-paso",
    "country": "US",
    "state": "TX",
    "city": "El Paso",
    "members": 61,
    "status": "active",
    "lat": 31.76,
    "lon": -106.49,
    "timezone": "US/Mountain"
  },
  {
    "name": "R-Ladies Tampa",
    "id": "rladies-tampa",
    "country": "US",
    "state": "FL",
    "city": "Tampa",
    "members": 313,
    "status": "active",
    "lat": 27.98,
    "lon": -82.34,
    "timezone": "US/Eastern"
  },
  {
    "name": "R-Ladies Lancaster",
    "id": "rladies-lancaster",
    "country": "GB",
    "state": "H2",
    "city": "Lancaster",
    "members": 129,
    "status": "active",
    "lat": 54.05,
    "lon": -2.8,
    "timezone": "Europe/London"
  },
  {
    "name": "R-Ladies Göteborg",
    "id": "rladies-goteborg",
    "country": "SE",
    "state": "",
    "city": "Göteborg",
    "members": 155,
    "status": "active",
    "lat": 57.72,
    "lon": 12.01,
    "timezone": "Europe/Stockholm"
  },
  {
    "name": "R-Ladies Helsinki",
    "id": "rladies-helsinki",
    "country": "FI",
    "state": "",
    "city": "Helsinki",
    "members": 381,
    "status": "active",
    "lat": 60.17,
    "lon": 24.94,
    "timezone": "Europe/Helsinki"
  },
  {
    "name": "R-Ladies Mendoza",
    "id": "rladies-mendoza",
    "country": "AR",
    "state": "",
    "city": "Mendoza",
    "members": 290,
    "status": "active",
    "lat": -32.89,
    "lon": -68.83,
    "timezone": "America/Mendoza"
  },
  {
    "name": "R-Ladies Recife",
    "id": "rladies-recife",
    "country": "BR",
    "state": "",
    "city": "Recife",
    "members": 148,
    "status": "active",
    "lat": -8.08,
    "lon": -34.92,
    "timezone": "America/Recife"
  },
  {
    "name": "R-Ladies Sydney",
    "id": "rladies-sydney",
    "country": "AU",
    "state": "",
    "city": "Sydney",
    "members": 800,
    "status": "active",
    "lat": -33.87,
    "lon": 151.21,
    "timezone": "Australia/Sydney"
  },
  {
    "name": "R-Ladies Cotonou",
    "id": "rladies-cotonou",
    "country": "BJ",
    "state": "",
    "city": "Cotonou",
    "members": 35,
    "status": "active",
    "lat": 6.36,
    "lon": 2.44,
    "timezone": "Africa/Porto-Novo"
  },
  {
    "name": "R-Ladies Mumbai",
    "id": "rladies-mumbai",
    "country": "IN",
    "state": "",
    "city": "Mumbai",
    "members": 76,
    "status": "active",
    "lat": 18.96,
    "lon": 72.82,
    "timezone": "Asia/Calcutta"
  },
  {
    "name": "R-Ladies Philly",
    "id": "rladies-philly",
    "country": "US",
    "state": "PA",
    "city": "Philadelphia",
    "members": 1356,
    "status": "active",
    "lat": 40.12,
    "lon": -75.01,
    "timezone": "US/Eastern"
  },
  {
    "name": "R-Ladies Ames",
    "id": "rladies-ames",
    "country": "US",
    "state": "IA",
    "city": "Ames",
    "members": 237,
    "status": "active",
    "lat": 42.03,
    "lon": -93.64,
    "timezone": "US/Central"
  },
  {
    "name": "R-Ladies Chicago",
    "id": "rladies-chicago",
    "country": "US",
    "state": "IL",
    "city": "Chicago",
    "members": 1256,
    "status": "active",
    "lat": 41.88,
    "lon": -87.62,
    "timezone": "US/Central"
  },
  {
    "name": "R-Ladies Oxford",
    "id": "rladies-oxford",
    "country": "GB",
    "state": "K2",
    "city": "Oxford",
    "members": 28,
    "status": "active",
    "lat": 51.76,
    "lon": -1.26,
    "timezone": "Europe/London"
  },
  {
    "name": "R-Ladies Resistencia-Corrientes",
    "id": "rladies-resistencia-corrientes",
    "country": "AR",
    "state": "",
    "city": "Corrientes",
    "members": 143,
    "status": "active",
    "lat": -27.49,
    "lon": -58.81,
    "timezone": "America/Cordoba"
  },
  {
    "name": "R-Ladies Santa Rosa",
    "id": "rladies-santa-rosa",
    "country": "AR",
    "state": "",
    "city": "Santa Rosa",
    "members": 136,
    "status": "active",
    "lat": -36.62,
    "lon": -64.3,
    "timezone": "America/Cordoba"
  },
  {
    "name": "R-Ladies Montevideo",
    "id": "rladies-montevideo",
    "country": "UY",
    "state": "",
    "city": "Montevideo",
    "members": 377,
    "status": "active",
    "lat": -34.87,
    "lon": -56.17,
    "timezone": "America/Montevideo"
  },
  {
    "name": "R-Ladies Boston",
    "id": "rladies-boston",
    "country": "US",
    "state": "MA",
    "city": "Boston",
    "members": 946,
    "status": "active",
    "lat": 42.36,
    "lon": -71.07,
    "timezone": "US/Eastern"
  },
  {
    "name": "R-Ladies Tbilisi",
    "id": "rladies-tbilisi",
    "country": "GE",
    "state": "",
    "city": "Tbilisi",
    "members": 286,
    "status": "active",
    "lat": 41.72,
    "lon": 44.79,
    "timezone": "Asia/Tbilisi"
  },
  {
    "name": "R-Ladies Vancouver",
    "id": "rladies-vancouver",
    "country": "CA",
    "state": "BC",
    "city": "Vancouver",
    "members": 517,
    "status": "active",
    "lat": 49.28,
    "lon": -123.04,
    "timezone": "Canada/Pacific"
  },
  {
    "name": "R-Ladies London, Ontario",
    "id": "rladies-ldnont",
    "country": "CA",
    "state": "ON",
    "city": "London",
    "members": 463,
    "status": "active",
    "lat": 43.01,
    "lon": -81.18,
    "timezone": "Canada/Eastern"
  },
  {
    "name": "R-Ladies Manchester",
    "id": "rladies-manchester",
    "country": "GB",
    "state": "18",
    "city": "Manchester",
    "members": 476,
    "status": "active",
    "lat": 53.47,
    "lon": -2.23,
    "timezone": "Europe/London"
  },
  {
    "name": "R-Ladies Cambridge",
    "id": "rladies-cambridge",
    "country": "GB",
    "state": "C3",
    "city": "Cambridge",
    "members": 284,
    "status": "active",
    "lat": 52.2,
    "lon": 0.11,
    "timezone": "Europe/London"
  },
  {
    "name": "R-Ladies Paris",
    "id": "rladies-paris",
    "country": "FR",
    "state": "",
    "city": "Paris",
    "members": 585,
    "status": "active",
    "lat": 48.86,
    "lon": 2.34,
    "timezone": "Europe/Paris"
  },
  {
    "name": "R-Ladies Niš",
    "id": "rladies-nis",
    "country": "RS",
    "state": "",
    "city": "Niš",
    "members": 11,
    "status": "active",
    "lat": 43.33,
    "lon": 21.9,
    "timezone": "Europe/Belgrade"
  },
  {
    "name": "R-Ladies São Paulo",
    "id": "rladies-sao-paulo",
    "country": "BR",
    "state": "",
    "city": "São Paulo",
    "members": 1148,
    "status": "active",
    "lat": -23.53,
    "lon": -46.63,
    "timezone": "America/Sao_Paulo"
  },
  {
    "name": "R-Ladies Colombo",
    "id": "rladies-colombo",
    "country": "LK",
    "state": "",
    "city": "Colombo",
    "members": 108,
    "status": "active",
    "lat": 6.93,
    "lon": 79.85,
    "timezone": "Asia/Colombo"
  },
  {
    "name": "R-Ladies Coventry",
    "id": "rladies-coventry",
    "country": "GB",
    "state": "43",
    "city": "Coventry",
    "members": 126,
    "status": "active",
    "lat": 52.42,
    "lon": -1.5,
    "timezone": "Europe/London"
  },
  {
    "name": "R-Ladies Irvine",
    "id": "rladies-irvine",
    "country": "US",
    "state": "CA",
    "city": "Irvine",
    "members": 456,
    "status": "active",
    "lat": 33.65,
    "lon": -117.84,
    "timezone": "US/Pacific"
  },
  {
    "name": "R-Ladies Montreal",
    "id": "rladies-montreal",
    "country": "CA",
    "state": "QC",
    "city": "Montréal",
    "members": 523,
    "status": "active",
    "lat": 45.53,
    "lon": -73.6,
    "timezone": "Canada/Eastern"
  },
  {
    "name": "R-Ladies New Orleans",
    "id": "rladies-new-orleans",
    "country": "US",
    "state": "LA",
    "city": "New Orleans",
    "members": 37,
    "status": "active",
    "lat": 29.96,
    "lon": -90.08,
    "timezone": "US/Central"
  },
  {
    "name": "R-Ladies Nashville",
    "id": "rladies-nashville",
    "country": "US",
    "state": "TN",
    "city": "Nashville",
    "members": 507,
    "status": "active",
    "lat": 36.17,
    "lon": -86.78,
    "timezone": "US/Central"
  },
  {
    "name": "R-Ladies Syracuse",
    "id": "rladies-syracuse",
    "country": "US",
    "state": "NY",
    "city": "Syracuse",
    "members": 7,
    "status": "active",
    "lat": 43.04,
    "lon": -76.15,
    "timezone": "US/Eastern"
  },
  {
    "name": "R-Ladies San Jose",
    "id": "rladies-san-jose",
    "country": "CR",
    "state": "",
    "city": "San Jose",
    "members": 614,
    "status": "active",
    "lat": 9.93,
    "lon": -84.08,
    "timezone": "America/Costa_Rica"
  },
  {
    "name": "R-Ladies Santa Fe",
    "id": "rladies-santa-fe",
    "country": "AR",
    "state": "",
    "city": "Santa Fe",
    "members": 214,
    "status": "active",
    "lat": -31.6,
    "lon": -60.69,
    "timezone": "America/Cordoba"
  },
  {
    "name": "R-Ladies Buenos Aires",
    "id": "rladies-buenos-aires",
    "country": "AR",
    "state": "",
    "city": "Buenos Aires",
    "members": 1263,
    "status": "active",
    "lat": -34.61,
    "lon": -58.37,
    "timezone": "America/Buenos_Aires"
  },
  {
    "name": "R-Ladies Rio de Janeiro",
    "id": "rladies-rio",
    "country": "BR",
    "state": "",
    "city": "Rio de Janeiro",
    "members": 601,
    "status": "active",
    "lat": -22.91,
    "lon": -43.2,
    "timezone": "America/Sao_Paulo"
  },
  {
    "name": "R-Ladies La Paz",
    "id": "rladies-la-paz",
    "country": "BO",
    "state": "",
    "city": "La Paz",
    "members": 277,
    "status": "active",
    "lat": -16.5,
    "lon": -68.15,
    "timezone": "America/La_Paz"
  },
  {
    "name": "R-Ladies Mid-Mo",
    "id": "rladies-mid-mo",
    "country": "US",
    "state": "MO",
    "city": "Columbia",
    "members": 84,
    "status": "active",
    "lat": 38.9,
    "lon": -92.25,
    "timezone": "US/Central"
  },
  {
    "name": "R-Ladies Monterrey",
    "id": "rladies-monterrey",
    "country": "MX",
    "state": "",
    "city": "Monterrey",
    "members": 305,
    "status": "active",
    "lat": 25.67,
    "lon": -100.32,
    "timezone": "America/Monterrey"
  },
  {
    "name": "R-Ladies Dublin",
    "id": "rladies-dublin",
    "country": "IE",
    "state": "",
    "city": "Dublin",
    "members": 819,
    "status": "active",
    "lat": 53.33,
    "lon": -6.25,
    "timezone": "Europe/Dublin"
  },
  {
    "name": "R-Ladies Santiago",
    "id": "rladies-scl",
    "country": "CL",
    "state": "",
    "city": "Santiago",
    "members": 2151,
    "status": "active",
    "lat": -33.46,
    "lon": -70.64,
    "timezone": "America/Santiago"
  },
  {
    "name": "R-Ladies Nairobi",
    "id": "rladies-nairobi",
    "country": "KE",
    "state": "",
    "city": "Nairobi",
    "members": 420,
    "status": "active",
    "lat": -1.29,
    "lon": 36.82,
    "timezone": "Africa/Nairobi"
  },
  {
    "name": "R-Ladies Charlottesville",
    "id": "rladies-charlottesville",
    "country": "US",
    "state": "VA",
    "city": "Charlottesville",
    "members": 413,
    "status": "active",
    "lat": 38,
    "lon": -78.46,
    "timezone": "US/Eastern"
  },
  {
    "name": "R-Ladies Chennai",
    "id": "rladies-chennai",
    "country": "IN",
    "state": "",
    "city": "Chennai",
    "members": 330,
    "status": "active",
    "lat": 13.09,
    "lon": 80.27,
    "timezone": "Asia/Calcutta"
  },
  {
    "name": "R-Ladies Brussels",
    "id": "rladies-brussels",
    "country": "BE",
    "state": "",
    "city": "Brussels",
    "members": 232,
    "status": "active",
    "lat": 50.83,
    "lon": 4.33,
    "timezone": "Europe/Brussels"
  },
  {
    "name": "R-Ladies Vitória",
    "id": "rladies-vitoria",
    "country": "BR",
    "state": "",
    "city": "Vitória",
    "members": 183,
    "status": "active",
    "lat": -20.31,
    "lon": -40.31,
    "timezone": "America/Sao_Paulo"
  },
  {
    "name": "R-Ladies Cape Town",
    "id": "rladies-cape-town",
    "country": "ZA",
    "state": "",
    "city": "Cape Town",
    "members": 718,
    "status": "active",
    "lat": -33.93,
    "lon": 18.46,
    "timezone": "Africa/Johannesburg"
  },
  {
    "name": "R-Ladies Strasbourg",
    "id": "rladies-strasbourg",
    "country": "FR",
    "state": "",
    "city": "Strasbourg",
    "members": 74,
    "status": "active",
    "lat": 48.58,
    "lon": 7.75,
    "timezone": "Europe/Paris"
  },
  {
    "name": "R-Ladies Orlando",
    "id": "rladies-orlando",
    "country": "US",
    "state": "FL",
    "city": "Orlando",
    "members": 326,
    "status": "active",
    "lat": 28.54,
    "lon": -81.37,
    "timezone": "US/Eastern"
  },
  {
    "name": "R-Ladies RTP",
    "id": "rladies-rtp",
    "country": "US",
    "state": "NC",
    "city": "Durham",
    "members": 801,
    "status": "active",
    "lat": 36,
    "lon": -78.9,
    "timezone": "US/Eastern"
  },
  {
    "name": "R-Ladies San Francisco",
    "id": "rladies-san-francisco",
    "country": "US",
    "state": "CA",
    "city": "San Francisco",
    "members": 1639,
    "status": "active",
    "lat": 37.79,
    "lon": -122.4,
    "timezone": "US/Pacific"
  },
  {
    "name": "R-Ladies Washington D.C.",
    "id": "rladies-dc",
    "country": "US",
    "state": "DC",
    "city": "Washington",
    "members": 2064,
    "status": "active",
    "lat": 38.91,
    "lon": -77.02,
    "timezone": "US/Eastern"
  },
  {
    "name": "R-Ladies Valparaíso",
    "id": "rladies-valparaiso",
    "country": "CL",
    "state": "",
    "city": "Valparaíso",
    "members": 272,
    "status": "active",
    "lat": -33.04,
    "lon": -71.64,
    "timezone": "America/Santiago"
  },
  {
    "name": "R-Ladies Belo Horizonte",
    "id": "rladies-belo-horizonte",
    "country": "BR",
    "state": "",
    "city": "Belo Horizonte",
    "members": 824,
    "status": "active",
    "lat": -19.92,
    "lon": -43.94,
    "timezone": "America/Sao_Paulo"
  },
  {
    "name": "R-Ladies Bari",
    "id": "rladies-bari",
    "country": "IT",
    "state": "BA",
    "city": "Bari",
    "members": 91,
    "status": "active",
    "lat": 41.13,
    "lon": 16.87,
    "timezone": "Europe/Rome"
  },
  {
    "name": "R-Ladies Milan",
    "id": "rladies-milan",
    "country": "IT",
    "state": "MI",
    "city": "Milano",
    "members": 938,
    "status": "active",
    "lat": 45.46,
    "lon": 9.19,
    "timezone": "Europe/Rome"
  },
  {
    "name": "R-Ladies New York",
    "id": "rladies-newyork",
    "country": "US",
    "state": "NY",
    "city": "New York",
    "members": 1980,
    "status": "active",
    "lat": 40.75,
    "lon": -73.99,
    "timezone": "US/Eastern"
  },
  {
    "name": "R-Ladies Pune",
    "id": "rladies-pune",
    "country": "IN",
    "state": "",
    "city": "Pune",
    "members": 136,
    "status": "active",
    "lat": 18.53,
    "lon": 73.84,
    "timezone": "Asia/Calcutta"
  },
  {
    "name": "R-Ladies Lexington Park",
    "id": "rladies-lexington-park",
    "country": "US",
    "state": "MD",
    "city": "Lexington Park",
    "members": 34,
    "status": "active",
    "lat": 38.27,
    "lon": -76.46,
    "timezone": "US/Eastern"
  },
  {
    "name": "R-Ladies Ottawa",
    "id": "rladies-ottawa",
    "country": "CA",
    "state": "ON",
    "city": "Ottawa",
    "members": 224,
    "status": "active",
    "lat": 45.45,
    "lon": -75.69,
    "timezone": "Canada/Eastern"
  },
  {
    "name": "R-Ladies Bergen",
    "id": "rladies-bergen",
    "country": "NO",
    "state": "",
    "city": "Bergen",
    "members": 241,
    "status": "active",
    "lat": 60.38,
    "lon": 5.34,
    "timezone": "Europe/Oslo"
  },
  {
    "name": "R-Ladies Cuernavaca",
    "id": "rladies-cuernavaca",
    "country": "MX",
    "state": "",
    "city": "Cuernavaca",
    "members": 475,
    "status": "active",
    "lat": 18.92,
    "lon": -99.25,
    "timezone": "America/Mexico_City"
  },
  {
    "name": "R-Ladies Buffalo",
    "id": "rladies-buffalo",
    "country": "US",
    "state": "NY",
    "city": "Buffalo",
    "members": 28,
    "status": "active",
    "lat": 42.9,
    "lon": -78.88,
    "timezone": "US/Eastern"
  },
  {
    "name": "R-Ladies CDMX",
    "id": "rladies-cdmx",
    "country": "MX",
    "state": "",
    "city": "México City",
    "members": 1779,
    "status": "active",
    "lat": 19.43,
    "lon": -99.14,
    "timezone": "America/Mexico_City"
  },
  {
    "name": "R-Ladies Ribeirão Preto",
    "id": "rladies-ribeirao-preto",
    "country": "BR",
    "state": "",
    "city": "Ribeirão Preto",
    "members": 111,
    "status": "active",
    "lat": -21.17,
    "lon": -47.8,
    "timezone": "America/Sao_Paulo"
  },
  {
    "name": "R-Ladies Yaoundé",
    "id": "rladies-yaounde",
    "country": "CM",
    "state": "",
    "city": "Yaoundé",
    "members": 49,
    "status": "active",
    "lat": 3.87,
    "lon": 11.52,
    "timezone": "Africa/Douala"
  },
  {
    "name": "R-Ladies Cusco",
    "id": "rladies-cusco",
    "country": "PE",
    "state": "",
    "city": "Cusco",
    "members": 21,
    "status": "active",
    "lat": -13.52,
    "lon": -71.99,
    "timezone": "America/Lima"
  },
  {
    "name": "R-Ladies Cochabamba",
    "id": "rladies-cochabamba",
    "country": "BO",
    "state": "",
    "city": "Cochabamba",
    "members": 11,
    "status": "active",
    "lat": -17.38,
    "lon": -66.17,
    "timezone": "America/La_Paz"
  },
  {
    "name": "R Ladies Aarhus",
    "id": "rladies-aarhus",
    "country": "DK",
    "state": "",
    "city": "Aarhus",
    "members": 7,
    "status": "active",
    "lat": 56.16,
    "lon": 10.2,
    "timezone": "Europe/Copenhagen"
  },
  {
    "name": "R-Ladies Taipei",
    "id": "rladies-taipei",
    "country": "TW",
    "state": "",
    "city": "Taipei",
    "members": 1671,
    "status": "active",
    "lat": 25.02,
    "lon": 121.45,
    "timezone": "Asia/Taipei"
  },
  {
    "name": "R-Ladies Jujuy",
    "id": "rladies-jujuy",
    "country": "AR",
    "state": "",
    "city": "Jujuy",
    "members": 119,
    "status": "active",
    "lat": -24.19,
    "lon": -65.3,
    "timezone": "America/Jujuy"
  },
  {
    "name": "R-Ladies Twin Cities",
    "id": "rladies-tc",
    "country": "US",
    "state": "MN",
    "city": "Minneapolis",
    "members": 394,
    "status": "active",
    "lat": 44.94,
    "lon": -93.22,
    "timezone": "US/Central"
  },
  {
    "name": "R-Ladies St. Louis",
    "id": "rladies-st-louis",
    "country": "US",
    "state": "MO",
    "city": "Saint Louis",
    "members": 718,
    "status": "active",
    "lat": 38.63,
    "lon": -90.19,
    "timezone": "US/Central"
  },
  {
    "name": "R-Ladies PDX",
    "id": "rladies-pdx",
    "country": "US",
    "state": "OR",
    "city": "Portland",
    "members": 246,
    "status": "active",
    "lat": 45.5,
    "lon": -122.69,
    "timezone": "US/Pacific"
  },
  {
    "name": "R-Ladies Miami",
    "id": "rladies-miami",
    "country": "US",
    "state": "FL",
    "city": "Miami",
    "members": 1101,
    "status": "active",
    "lat": 25.78,
    "lon": -80.2,
    "timezone": "US/Eastern"
  },
  {
    "name": "R-Ladies Abuja",
    "id": "rladies-abuja",
    "country": "NG",
    "state": "",
    "city": "Abuja",
    "members": 157,
    "status": "active",
    "lat": 9.18,
    "lon": 7.17,
    "timezone": "Africa/Lagos"
  },
  {
    "name": "R-Ladies Istanbul",
    "id": "rladies-istanbul",
    "country": "TR",
    "state": "",
    "city": "Istanbul",
    "members": 1905,
    "status": "active",
    "lat": 41.01,
    "lon": 28.96,
    "timezone": "Europe/Istanbul"
  },
  {
    "name": "R-Ladies Budapest",
    "id": "rladies-budapest",
    "country": "HU",
    "state": "",
    "city": "Budapest",
    "members": 862,
    "status": "active",
    "lat": 47.51,
    "lon": 19.08,
    "timezone": "Europe/Budapest"
  },
  {
    "name": "R-Ladies Austin",
    "id": "rladies-austin",
    "country": "US",
    "state": "TX",
    "city": "Austin",
    "members": 626,
    "status": "active",
    "lat": 30.22,
    "lon": -97.75,
    "timezone": "US/Central"
  },
  {
    "name": "R-Ladies Ankara",
    "id": "rladies-ankara",
    "country": "TR",
    "state": "",
    "city": "Ankara",
    "members": 539,
    "status": "active",
    "lat": 39.93,
    "lon": 32.85,
    "timezone": "Europe/Istanbul"
  },
  {
    "name": "R-Ladies Den Bosch",
    "id": "rladies-den-bosch",
    "country": "NL",
    "state": "",
    "city": "Den Bosch",
    "members": 110,
    "status": "active",
    "lat": 51.7,
    "lon": 5.3,
    "timezone": "Europe/Amsterdam"
  },
  {
    "name": "R-Ladies Ushuaia",
    "id": "rladies-ushuaia",
    "country": "AR",
    "state": "",
    "city": "Ushuaia",
    "members": 30,
    "status": "active",
    "lat": -54.79,
    "lon": -68.31,
    "timezone": "America/Buenos_Aires"
  },
  {
    "name": "R-Ladies Bogor",
    "id": "rladies-bogor",
    "country": "ID",
    "state": "",
    "city": "Bogor",
    "members": 277,
    "status": "active",
    "lat": -6.58,
    "lon": 106.79,
    "timezone": "Asia/Jakarta"
  },
  {
    "name": "R-Ladies Podgorica",
    "id": "rladies-podgorica",
    "country": "ME",
    "state": "",
    "city": "Podgorica",
    "members": 25,
    "status": "active",
    "lat": 42.47,
    "lon": 19.28,
    "timezone": "Europe/Belgrade"
  },
  {
    "name": "R-Ladies Calgary",
    "id": "rladies-calgary",
    "country": "CA",
    "state": "AB",
    "city": "Calgary",
    "members": 103,
    "status": "active",
    "lat": 51.04,
    "lon": -114.06,
    "timezone": "Canada/Mountain"
  },
  {
    "name": "R-Ladies Oxford Ohio",
    "id": "rladies-oxford-ohio",
    "country": "US",
    "state": "OH",
    "city": "Oxford",
    "members": 48,
    "status": "active",
    "lat": 39.49,
    "lon": -84.74,
    "timezone": "US/Eastern"
  },
  {
    "name": "R-Ladies Beijing",
    "id": "rladies-beijing",
    "country": "CN",
    "state": "",
    "city": "Beijing",
    "members": 55,
    "status": "active",
    "lat": 39.93,
    "lon": 116.4,
    "timezone": "Asia/Shanghai"
  },
  {
    "name": "R-Ladies Eskisehir",
    "id": "rladies-eskisehir",
    "country": "TR",
    "state": "",
    "city": "Eskisehir",
    "members": 115,
    "status": "active",
    "lat": 39.79,
    "lon": 30.52,
    "timezone": "Europe/Istanbul"
  },
  {
    "name": "R-Ladies Masqat",
    "id": "rladies-masqat",
    "country": "OM",
    "state": "",
    "city": "Muscat",
    "members": 117,
    "status": "active",
    "lat": 23.61,
    "lon": 58.54,
    "timezone": "Asia/Muscat"
  },
  {
    "name": "R-Ladies Al-Khartum",
    "id": "rladies-al-khartum",
    "country": "SD",
    "state": "",
    "city": "al-Khartum",
    "members": 38,
    "status": "active",
    "lat": 15.58,
    "lon": 32.52,
    "timezone": "Africa/Khartoum"
  },
  {
    "name": "R-Ladies Nelson",
    "id": "rladies-nelson",
    "country": "NZ",
    "state": "",
    "city": "Nelson",
    "members": 13,
    "status": "active",
    "lat": -41.29,
    "lon": 173.24,
    "timezone": "Pacific/Auckland"
  },
  {
    "name": "R-Ladies Queretaro",
    "id": "rladies-queretaro",
    "country": "MX",
    "state": "",
    "city": "Querétaro",
    "members": 521,
    "status": "active",
    "lat": 20.59,
    "lon": -100.4,
    "timezone": "America/Mexico_City"
  },
  {
    "name": "R-Ladies Medellín",
    "id": "rladies-medellin",
    "country": "CO",
    "state": "",
    "city": "Medellín",
    "members": 436,
    "status": "active",
    "lat": 6.25,
    "lon": -75.59,
    "timezone": "America/Bogota"
  },
  {
    "name": "R-Ladies Floripa",
    "id": "rladies-florianopolis",
    "country": "BR",
    "state": "",
    "city": "Florianópolis",
    "members": 445,
    "status": "active",
    "lat": -27.6,
    "lon": -48.54,
    "timezone": "America/Sao_Paulo"
  },
  {
    "name": "R-Ladies Lagos",
    "id": "rladies-lagos",
    "country": "NG",
    "state": "",
    "city": "Lagos",
    "members": 290,
    "status": "active",
    "lat": 6.45,
    "lon": 3.47,
    "timezone": "Africa/Lagos"
  },
  {
    "name": "R-Ladies Pachuca",
    "id": "rladies-pachuca",
    "country": "MX",
    "state": "",
    "city": "Pachuca",
    "members": 11,
    "status": "active",
    "lat": 20.12,
    "lon": -98.76,
    "timezone": "America/Mexico_City"
  },
  {
    "name": "R-Ladies Galapagos Islands",
    "id": "rladies-galapagos-islands",
    "country": "EC",
    "state": "",
    "city": "Puerto Ayora",
    "members": 237,
    "status": "active",
    "lat": -0.74,
    "lon": -90.32,
    "timezone": "Pacific/Galapagos"
  },
  {
    "name": "R-Ladies Banda Aceh",
    "id": "rladies-banda-aceh",
    "country": "ID",
    "state": "",
    "city": "Banda Aceh",
    "members": 36,
    "status": "active",
    "lat": 5.55,
    "lon": 95.32,
    "timezone": "Asia/Jakarta"
  },
  {
    "name": "R-Ladies Bangalore",
    "id": "rladies-bangalore",
    "country": "IN",
    "state": "",
    "city": "Bangalore",
    "members": 94,
    "status": "active",
    "lat": 12.97,
    "lon": 77.56,
    "timezone": "Asia/Calcutta"
  },
  {
    "name": "R-Ladies Barranquilla",
    "id": "rladies-barranquilla",
    "country": "CO",
    "state": "",
    "city": "Barranquilla",
    "members": 211,
    "status": "active",
    "lat": 11,
    "lon": -74.82,
    "timezone": "America/Bogota"
  },
  {
    "name": "R-Ladies Asunción",
    "id": "rladies-asuncion",
    "country": "PY",
    "state": "",
    "city": "Asunción",
    "members": 69,
    "status": "active",
    "lat": -25.3,
    "lon": -57.63,
    "timezone": "America/Asuncion"
  },
  {
    "name": "R-Ladies Tunis",
    "id": "rladies-tunis",
    "country": "TN",
    "state": "",
    "city": "Tunis",
    "members": 497,
    "status": "active",
    "lat": 36.84,
    "lon": 10.22,
    "timezone": "Africa/Tunis"
  },
  {
    "name": "R-Ladies Aguascalientes",
    "id": "rladies-aguascalientes",
    "country": "MX",
    "state": "",
    "city": "Aguascalientes",
    "members": 312,
    "status": "active",
    "lat": 21.88,
    "lon": -102.3,
    "timezone": "America/Mexico_City"
  },
  {
    "name": "R-Ladies Waltham",
    "id": "rladies-waltham",
    "country": "US",
    "state": "MA",
    "city": "Waltham",
    "members": 25,
    "status": "active",
    "lat": 42.4,
    "lon": -71.26,
    "timezone": "US/Eastern"
  },
  {
    "name": "R-Ladies Algiers",
    "id": "rladies-algiers",
    "country": "DZ",
    "state": "",
    "city": "al-Jaza´ir",
    "members": 126,
    "status": "active",
    "lat": 36.77,
    "lon": 3.04,
    "timezone": "Africa/Algiers"
  },
  {
    "name": "R-Ladies Natal",
    "id": "rladies-natal",
    "country": "BR",
    "state": "",
    "city": "Natal",
    "members": 348,
    "status": "active",
    "lat": -5.8,
    "lon": -35.22,
    "timezone": "America/Fortaleza"
  },
  {
    "name": "R-Ladies Curitiba",
    "id": "rladies-curitiba",
    "country": "BR",
    "state": "",
    "city": "Curitiba",
    "members": 46,
    "status": "active",
    "lat": -25.42,
    "lon": -49.29,
    "timezone": "America/Sao_Paulo"
  },
  {
    "name": "R-Ladies Ha Noi",
    "id": "rladies-ha-noi",
    "country": "VN",
    "state": "",
    "city": "Ha Noi",
    "members": 39,
    "status": "active",
    "lat": 21.03,
    "lon": 105.84,
    "timezone": "Asia/Saigon"
  },
  {
    "name": "R-Ladies Kuala Lumpur",
    "id": "rladies-kuala-lumpur",
    "country": "MY",
    "state": "",
    "city": "Kuala Lumpur",
    "members": 10,
    "status": "active",
    "lat": 3.16,
    "lon": 101.71,
    "timezone": "Asia/Kuala_Lumpur"
  },
  {
    "name": "R-Ladies Saudi Arabia (Dammam)",
    "id": "rladies-dammam",
    "country": "SA",
    "state": "",
    "city": "Dammam",
    "members": 82,
    "status": "active",
    "lat": 26.42,
    "lon": 50.09,
    "timezone": "Asia/Riyadh"
  },
  {
    "name": "R-Ladies Tijuana",
    "id": "rladies-tijuana",
    "country": "MX",
    "state": "",
    "city": "Tijuana",
    "members": 47,
    "status": "active",
    "lat": 32.53,
    "lon": -117.02,
    "timezone": "America/Tijuana"
  },
  {
    "name": "R-Ladies Glasgow",
    "id": "rladies-glasgow",
    "country": "GB",
    "state": "V2",
    "city": "Glasgow",
    "members": 41,
    "status": "active",
    "lat": 55.86,
    "lon": -4.24,
    "timezone": "Europe/London"
  },
  {
    "name": "R-Ladies Fortaleza",
    "id": "rladies-fortaleza",
    "country": "BR",
    "state": "",
    "city": "Fortaleza",
    "members": 104,
    "status": "active",
    "lat": -3.78,
    "lon": -38.59,
    "timezone": "America/Fortaleza"
  },
  {
    "name": "R-Ladies Cordoba",
    "id": "rladies-cordoba",
    "country": "AR",
    "state": "",
    "city": "Córdoba",
    "members": 32,
    "status": "active",
    "lat": -31.4,
    "lon": -64.19,
    "timezone": "America/Cordoba"
  },
  {
    "name": "R-Ladies General Pico",
    "id": "rladies-general-pico",
    "country": "AR",
    "state": "",
    "city": "General Pico",
    "members": 62,
    "status": "active",
    "lat": -35.66,
    "lon": -63.77,
    "timezone": "America/Cordoba"
  },
  {
    "name": "R-Ladies Guadalajara",
    "id": "rladies-guadalajara",
    "country": "MX",
    "state": "",
    "city": "Guadalajara",
    "members": 263,
    "status": "active",
    "lat": 20.67,
    "lon": -103.35,
    "timezone": "America/Mexico_City"
  },
  {
    "name": "R-Ladies Concepción",
    "id": "rladies-concepcion",
    "country": "CL",
    "state": "",
    "city": "Concepción",
    "members": 496,
    "status": "active",
    "lat": -36.83,
    "lon": -73.05,
    "timezone": "America/Santiago"
  },
  {
    "name": "R-Ladies Talca",
    "id": "rladies-talca",
    "country": "CL",
    "state": "",
    "city": "Talca",
    "members": 119,
    "status": "active",
    "lat": -35.42,
    "lon": -71.66,
    "timezone": "America/Santiago"
  },
  {
    "name": "R-Ladies Adelaide",
    "id": "rladies-adelaide",
    "country": "AU",
    "state": "",
    "city": "Adelaide",
    "members": 308,
    "status": "active",
    "lat": -34.93,
    "lon": 138.6,
    "timezone": "Australia/Adelaide"
  },
  {
    "name": "R-Ladies Bogotá",
    "id": "rladies-bogota",
    "country": "CO",
    "state": "",
    "city": "Bogotá",
    "members": 276,
    "status": "active",
    "lat": 4.63,
    "lon": -74.09,
    "timezone": "America/Bogota"
  }
]
